{
  "conferences": [
    {
      "id": 1,
      "name": "International Conference on Artificial Intelligence",
      "location": "Tokyo, Japan",
      "startDate": "2024-07-15",
      "endDate": "2024-07-18",
      "description": "Leading conference on AI research and applications featuring cutting-edge developments in machine learning, neural networks, and intelligent systems.",
      "website": "https://icai2024.org",
      "tags": ["AI", "Machine Learning", "Neural Networks", "Computer Science"],
      "lat": 35.6762,
      "lon": 139.6503
    },
    {
      "id": 2,
      "name": "Web Development Summit",
      "location": "San Francisco, USA",
      "startDate": "2024-08-10",
      "endDate": "2024-08-12",
      "description": "Annual gathering of web developers, designers, and industry experts discussing the latest trends in web technologies.",
      "website": "https://webdevsummit.com",
      "tags": ["Web Development", "JavaScript", "React", "Frontend"],
      "lat": 37.7749,
      "lon": -122.4194
    },
    {
      "id": 3,
      "name": "Data Science Conference Europe",
      "location": "Berlin, Germany",
      "startDate": "2024-09-05",
      "endDate": "2024-09-07",
      "description": "Premier European event for data scientists, analysts, and ML engineers to share knowledge and best practices.",
      "website": "https://dsceurope.eu",
      "tags": ["Data Science", "Machine Learning", "Analytics", "Big Data"],
      "lat": 52.5200,
      "lon": 13.4050
    },
    {
      "id": 4,
      "name": "Cloud Infrastructure Conference",
      "location": "London, UK",
      "startDate": "2024-10-12",
      "endDate": "2024-10-14",
      "description": "Focused on cloud computing technologies, infrastructure, and DevOps practices for modern applications.",
      "website": "https://cloudinfraconf.com",
      "tags": ["Cloud Computing", "DevOps", "AWS", "Azure", "Google Cloud"],
      "lat": 51.5074,
      "lon": -0.1278
    },
    {
      "id": 5,
      "name": "Mobile App Development Conference",
      "location": "New York, USA",
      "startDate": "2024-11-05",
      "endDate": "2024-11-07",
      "description": "Gathering of mobile developers exploring iOS, Android, and cross-platform development trends.",
      "website": "https://mobileappdevconf.com",
      "tags": ["Mobile Development", "iOS", "Android", "React Native", "Flutter"],
      "lat": 40.7128,
      "lon": -74.0060
    },
    {
      "id": 6,
      "name": "Cybersecurity World Conference",
      "location": "Singapore",
      "startDate": "2024-12-03",
      "endDate": "2024-12-05",
      "description": "International conference on cybersecurity threats, defenses, and best practices for organizations.",
      "website": "https://cyberworldconf.sg",
      "tags": ["Cybersecurity", "InfoSec", "Network Security", "Encryption"],
      "lat": 1.3521,
      "lon": 103.8198
    },
    {
      "id": 7,
      "name": "Blockchain & Crypto Summit",
      "location": "Zurich, Switzerland",
      "startDate": "2025-01-15",
      "endDate": "2025-01-17",
      "description": "Exploring blockchain technology, cryptocurrencies, and decentralized applications.",
      "website": "https://blockchainsummit.ch",
      "tags": ["Blockchain", "Cryptocurrency", "Web3", "DeFi", "NFT"],
      "lat": 47.3769,
      "lon": 8.5417
    },
    {
      "id": 8,
      "name": "Game Developers Conference",
      "location": "Los Angeles, USA",
      "startDate": "2025-02-20",
      "endDate": "2025-02-22",
      "description": "Premier event for game developers covering design, programming, audio, production, and business.",
      "website": "https://gdconf.com",
      "tags": ["Game Development", "Unity", "Unreal Engine", "VR", "AR"],
      "lat": 34.0522,
      "lon": -118.2437
    },
    {
      "id": 9,
      "name": "UX Design Conference",
      "location": "Amsterdam, Netherlands",
      "startDate": "2025-03-10",
      "endDate": "2025-03-12",
      "description": "Focused on user experience design, research, and product strategy for digital products.",
      "website": "https://uxdesignconf.nl",
      "tags": ["UX Design", "UI Design", "User Research", "Product Design"],
      "lat": 52.3676,
      "lon": 4.9041
    },
    {
      "id": 10,
      "name": "DevOps World",
      "location": "Paris, France",
      "startDate": "2025-04-08",
      "endDate": "2025-04-10",
      "description": "Conference dedicated to DevOps practices, CI/CD, automation, and cloud-native technologies.",
      "website": "https://devopsworld.fr",
      "tags": ["DevOps", "CI/CD", "Kubernetes", "Docker", "Automation"],
      "lat": 48.8566,
      "lon": 2.3522
    },
    {
      "id": 11,
      "name": "IoT Solutions World Congress",
      "location": "Barcelona, Spain",
      "startDate": "2025-05-14",
      "endDate": "2025-05-16",
      "description": "Leading event for the industrial internet of things, showcasing IoT solutions and applications.",
      "website": "https://iotsolutionscongress.com",
      "tags": ["IoT", "Smart Devices", "Industrial IoT", "Edge Computing"],
      "lat": 41.3851,
      "lon": 2.1734
    },
    {
      "id": 12,
      "name": "AI & Big Data Expo",
      "location": "Sydney, Australia",
      "startDate": "2025-06-05",
      "endDate": "2025-06-07",
      "description": "Exploring the convergence of artificial intelligence and big data technologies and applications.",
      "website": "https://aibigdataexpo.com.au",
      "tags": ["AI", "Big Data", "Data Analytics", "Machine Learning"],
      "lat": -33.8688,
      "lon": 151.2093
    }
  ]
}